[
{"name":"Tân cảng Sa Đéc","type":"cảng","image":"https://static.tin.moi/uploads/news/photo/u8/u8O/u8ORFCy57N-720x478.jpg","address":"8Q94+FWH, Tân Khánh Đông, Sa Đéc, Đồng Tháp, Việt Nam","state":"Đồng Tháp","latitude":10.322126936894863,"longitude":105.75743764022943}
,{"name":"Công ty Điện lực","type":"điện lực","image":"http://pcdongthap.evnspc.vn/Portals/0/Anh%201%20(1).jpg?ver=2016-12-20-072144-877","address":"250 Đ. Nguyễn Huệ, Phường 2, TP. Cao Lãnh, Đồng Tháp, Việt Nam","state":"Đồng Tháp","latitude":10.459585861092737,"longitude":105.64105740675801}
,{"name":"Công ty Cổ Phần Cấp nước","type":"cấp nước","image":"http://www.dowasen.com/uploads/download.aspx?a=319596+69F1A704946B796BFC7B3AF80F71C1E7","address":"01 Tôn Đức Thắng, Phường 5, TP. Cao Lãnh, Đồng Tháp, Việt Nam","state":"Đồng Tháp","latitude":10.463096712266825,"longitude":105.63016822026543}
,{"name":"Nhà Máy Xử Lý Nước Thải","type":"xử lí nước thải","image":"https://hoabinhxanh.vn/wp-content/uploads/2016/05/Khu-c%C3%B4ng-nghi%E1%BB%87p-Sadec-Nh%C3%A0-m%C3%A1y-USFEED.jpg","address":"Đường Số 5, Tân Qúy Đông, Sa Đéc, Đồng Tháp, Việt Nam","state":"Đồng Tháp","latitude":10.337741070993268,"longitude":105.75533830552354}
,{"name":"VNPT Đồng Tháp","type":"bưu chính","image":"http://www.vnptdongthap.com.vn/Images/images/Thong%20bao.jpg","address":"83 Đ. Nguyễn Huệ, Phường 1, TP. Cao Lãnh, Đồng Tháp, Việt Nam","state":"Đồng Tháp","latitude":10.456716407032468,"longitude":105.63588949698634}
,{"name":"KHU CÔNG NGHIỆP XA ĐÉC","type":"khu công nghiệp","image":"https://nguoidongthap.vn/wp-content/uploads/2021/07/dong-thap-co-bao-nhieu-khu-cong-nghiep-1140x765.jpg?v=1625729650","address":" X.Tân Quy Tây -TX.Sa Đéc – Đồng Tháp","state":"Đồng Tháp","latitude":10.330597068709155,"longitude":105.7536547812739}
,{"name":"KCN Trần Quốc Toản","type":"khu công nghiệp","image":"https://timviec365.vn/pictures/images_10_2020/khu-cong-nghiep-Tran-Quoc-Toan%20(2).JPG","address":"Phường 11 – Thị Xã Cao Lãnh – Đồng Tháp","state":"Đồng Tháp","latitude":10.503140413145218,"longitude":105.56609692628922}
,{"name":"KHU CÔNG NGHIỆP SÔNG HẬU","type":"khu công nghiệp","image":"https://investvietnam.gov.vn/FileUpload/Images/1_26.jpg","address":"QL54, Tân Thành, Lai Vung, Đồng Tháp, Việt Nam","state":"Đồng Tháp","latitude":10.294840295641349,"longitude":105.59885688371239}
,{"name":"Trường THPT Châu Thành I","type":"trường học","image":"https://caodang.fpt.edu.vn/wp-content/uploads/CT299_L%E1%BB%9Bp-12CB3-THPT-Ch%C3%A2u-Th%C3%A0nh-1_%C4%90%E1%BB%93ng-Th%C3%A1p-e1582704395196.jpg","address":"QL80, Tân Nhuận Đông, Châu Thành, Đồng Tháp, Việt Nam","state":"Đồng Tháp","latitude":10.271997510420409,"longitude":105.82237584682741}
,{"name":"Trường THPT Châu Thành 2","type":"trường học","image":"http://dongthap.edu.vn/upload/19963/fck/files/tc1.jpg","address":"QL80, TT. Cái Tàu Hạ, Châu Thành, Đồng Tháp, Việt Nam","state":"Đồng Tháp","latitude":10.260701261851743, "longitude":105.87534474337225}
,{"name":"Trường THPT Thành phố Sa Đéc","type":"trường học","image":"http://bizweb.dktcdn.net/thumb/grande/100/343/398/products/mg-0038-3a91c3bc-8b11-4eac-8a0c-71025c1bd472.jpg?v=1582509548973","address":"145 Đường Trần Phú, Phường 1, Sa Đéc, Đồng Tháp, Việt Nam","state":"Đồng Tháp","latitude":10.294083375708526,"longitude":105.75787367671998}
,{"name":"Trường THPT Chuyên Nguyễn Đình Chiểu","type":"trường học","image":"https://scontent.fhan3-1.fna.fbcdn.net/v/t39.30808-6/255471049_1255973788248796_7889236805742586963_n.jpg?_nc_cat=102&_nc_rgb565=1&ccb=1-5&_nc_sid=09cbfe&_nc_ohc=PyvebT_IqGkAX_J-kWr&_nc_ht=scontent.fhan3-1.fna&oh=f54dc9a00e3eaad0013dc56541f62ab7&oe=61B93B9B","address":"ĐT848, Tân Phú Đông, Sa Đéc, Đồng Tháp, Việt Nam","state":"Đồng Tháp","latitude":10.284617370068714,"longitude":105.75662101485281}
,{"name":"TT Dạy nghề - GDTX Châu Thành","type":"trường học","image":"","address":"Số 82, quốc lộ 80, khóm Phú Mỹ, thị trấn Cái Tàu Hạ, TT. Cái Tàu Hạ, Châu Thành, Đồng Tháp, Việt Nam","state":"Đồng Tháp","latitude":10.322126936894863,"longitude":105.75743764022943}
,{"name":"Trường TC nghề GTVT","type":"trường học","image":"https://cover.talk.zdn.vn/f/0/b/f/1/f89c9c39a396c91ad21d49b6d34d511f.jpg","address":"314 Lê Đại Hành, Phường Mỹ Phú, TP. Cao Lãnh, Đồng Tháp, Việt Nam","state":"Đồng Tháp","latitude":10.498535507526523, "longitude":105.64991580874444}
,{"name":"Trường tiểu học Nguyễn Viết Xuân","type":"trường học","image":"","address":"CHXW+P5J, Tân Thuận Tây, TP. Cao Lãnh, Đồng Tháp, Việt Nam","state":"Đồng Tháp","latitude":10.457799526590911, "longitude":105.59506115428653}
,{"name":"Trường Tiểu học Lê Quý Đôn","type":"trường học","image":"","address":"37 Cách Mạng Tháng 8, Phường 2, TP. Cao Lãnh, Đồng Tháp, Việt Nam","state":"Đồng Tháp","latitude":10.463411160106654, "longitude":105.63595756086328}
,{"name":"Trường Tiểu học Lý Thường Kiệt","type":"trường học","image":"","address":"Tổ 11, ấp Đông Thạnh, xã Tân Đông, Đồng Tháp, Việt Nam","state":"Đồng Tháp","latitude":10.443769999081656, "longitude":105.60504748612503}
,{"name":"Trường Tiểu học Võ Thị Sáu ( Điểm Chính )","type":"trường học","image":"","address":"CMW3+5GX, Phường 3, TP. Cao Lãnh, Đồng Tháp, Việt Nam","state":"Đồng Tháp","latitude":10.4535907348762,"longitude":105.65640576415164}

,{"name":"VNPT Đồng Tháp","type":"bưu chính","image":"","address":"","state":"Đồng Tháp","latitude":10.322126936894863,"longitude":105.75743764022943}
,{"name":"VNPT Đồng Tháp","type":"bưu chính","image":"","address":"","state":"Đồng Tháp","latitude":10.322126936894863,"longitude":105.75743764022943}
,{"name":"VNPT Đồng Tháp","type":"bưu chính","image":"","address":"","state":"Đồng Tháp","latitude":10.322126936894863,"longitude":105.75743764022943}
,{"name":"VNPT Đồng Tháp","type":"bưu chính","image":"","address":"","state":"Đồng Tháp","latitude":10.322126936894863,"longitude":105.75743764022943}


]
